[
{"_id":{"$oid":"5ade8b8431926c20a93a1552"},"name":"Université Paul Sabatier - Toulouse 3","acronym":"UPS","postalCode":"31000","city":"Toulouse","region":"Occitanie","country":"France","location":{"type":"Point","coordinates":[43.561984,1.470022]},"__v":0,"url":"http://www.univ-tlse3.fr/"},
{"_id":{"$oid":"5ade8b8431926c20a93a1553"},"name":"Institut National Universitaire de Champollion","acronym":"INUC","postalCode":"81000","city":"Albi","region":"Occitanie","country":"France","location":{"type":"Point","coordinates":[43.919504,2.138858]},"__v":0,"url":"https://www.univ-jfc.fr/"},
{"_id":{"$oid":"5ade8b8431926c20a93a1554"},"name":"Université Marie et Pierre Curie Paris VI","acronym":"UMPC","postalCode":"75000","city":"Paris","region":"Île-de-France","country":"France","location":{"type":"Point","coordinates":[48.847124,2.357469]},"__v":0,"url":"https://www.sorbonne-universite.fr/"},
{"_id":{"$oid":"5ade8b8431926c20a93a1555"},"name":"Montpellier 2","acronym":"Non renseigné","postalCode":"34000","city":"Montpellier","region":"Occitanie","country":"France","location":{"type":"Point","coordinates":[43.631633,3.863411]},"__v":0,"url":"https://www.umontpellier.fr/"},
{"_id":{"$oid":"5ade8b8431926c20a93a1556"},"name":"Paul Valéry - Montpellier 3","acronym":"Non renseigné","postalCode":"34000","city":"Montpellier","region":"Occitanie","country":"France","location":{"type":"Point","coordinates":[43.632472,3.870234]},"__v":0,"url":"https://www.univ-montp3.fr/"},
{"_id":{"$oid":"5ade8b8431926c20a93a1557"},"name":"Université Claude Bernard Lyon 1","acronym":"Non renseigné","postalCode":"69000","city":"Lyon","region":"Auvergne-Rhône-Alpes","country":"France","location":{"type":"Point","coordinates":[45.778898,4.86793]},"__v":0,"url":"https://www.univ-lyon1.fr/"},
{"_id":{"$oid":"5ade8b8431926c20a93a1558"},"name":"Pôle Universitaire de Vichy","acronym":"Non renseigné","postalCode":"3200","city":"Vichy","region":"Auvergne-Rhône-Alpes","country":"France","location":{"type":"Point","coordinates":[46.11957,3.425277]},"__v":0,"url":"http://www.vichy-universite.com/"},
{"_id":{"$oid":"5ade8b8431926c20a93a1559"},"name":"Télécom ParisTech","acronym":"Non renseigné","postalCode":"75000","city":"Paris","region":"Île-de-France","country":"France","location":{"type":"Point","coordinates":[48.826295,2.346418]},"__v":0,"url":"https://www.telecom-paristech.fr/"},
{"_id":{"$oid":"5ade8b8431926c20a93a155a"},"name":"Université Paris-Sud","acronym":"Non renseigné","postalCode":"75000","city":"Paris","region":"Île-de-France","country":"France","location":{"type":"Point","coordinates":[48.697685,2.176484]},"__v":0,"url":"http://www.u-psud.fr/fr/index.html"},
{"_id":{"$oid":"5ade8b8431926c20a93a155b"},"name":"Université Denis Diderot Paris","acronym":"Non renseigné","postalCode":"75000","city":"Paris","region":"Île-de-France","country":"France","location":{"type":"Point","coordinates":[48.829321,2.381791]},"__v":0,"url":"https://www.univ-paris-diderot.fr/"},
{"_id":{"$oid":"5ade8b8431926c20a93a155c"},"name":"Université Aix-Marseille","acronym":"Non renseigné","postalCode":"13007","city":"Marseille","region":"Provence-Alpes-Côte d'Azur","country":"France","location":{"type":"Point","coordinates":[43.293622,5.358061]},"__v":0,"url":"https://www.univ-amu.fr/"},
{"_id":{"$oid":"5ade8b8431926c20a93a155d"},"name":"École d'ingénieurs 3IL","acronym":"3IL","postalCode":"87015","city":"Limoges","region":"Nouvelle Aquitaine","country":"France","location":{"type":"Point","coordinates":[45.819035,1.271313]},"__v":0,"url":"http://www.3il-ingenieurs.fr/"},
{"_id":{"$oid":"5ade8b8431926c20a93a155e"},"name":"Arts et Métiers ParisTech Angers - site de Laval","acronym":"Non renseigné","postalCode":"53000","city":"Laval","region":"Pays de la Loire","country":"France","location":{"type":"Point","coordinates":[48.088469,-0.751721]},"__v":0,"url":"https://artsetmetiers.fr/fr/campus/angers"},
{"_id":{"$oid":"5ade8b8431926c20a93a155f"},"name":"Rennes 1","acronym":"Non renseigné","postalCode":"35000","city":"Rennes","region":"Bretagne","country":"France","location":{"type":"Point","coordinates":[48.115941,-1.672969]},"__v":0,"url":"https://www.univ-rennes1.fr/"},
{"_id":{"$oid":"5ade8b8431926c20a93a1560"},"name":"École d'ingénieurs ISIS","acronym":"ISIS","postalCode":"81104","city":"Castres","region":"Occitanie","country":"France","location":{"type":"Point","coordinates":[43.624163,2.268655]},"__v":0,"url":"http://isis.univ-jfc.fr/fr/formation"},
{"_id":{"$oid":"5ade8b8431926c20a93a1561"},"name":"IUT de Rodez","acronym":"Non renseigné","postalCode":"12000","city":"Rodez","region":"Occitanie","country":"France","location":{"type":"Point","coordinates":[44.360249,2.575822]},"__v":0,"url":"https://www.iut-rodez.fr/"},
{"_id":{"$oid":"5ade8b8431926c20a93a1562"},"name":"Faculté des Sciences et Techniques","acronym":"Limoges-FST","postalCode":"87060","city":"Limoges","region":"Nouvelle Aquitaine","country":"France","location":{"type":"Point","coordinates":[45.837949,1.238601]},"__v":0,"url":"https://www.sciences.unilim.fr/"}
]
